[
  {
    "name": "香川県立ミュージアム",
    "spot_id": "kagawa_pref_museum",
    "lat": 34.3494936,
    "lng": 134.0531364,
    "category": "博物館",
    "prefecture": "香川県",
    "municipality": "高松市",
    "official_url": "https://www.pref.kagawa.lg.jp/kmuseum/kmuseum/index.html",
    "description": "香川県立の博物館です。展覧会や関連イベントの情報は公式サイトで案内されています。",
    "source": "https://www.kagawa-arts.or.jp/facility/"
  },
  {
    "name": "高松市美術館",
    "spot_id": "takamatsu_city_museum_of_art",
    "lat": 34.34404,
    "lng": 134.04915,
    "category": "美術館",
    "prefecture": "香川県",
    "municipality": "高松市",
    "official_url": "https://www.city.takamatsu.kagawa.jp/museum/takamatsu/",
    "description": "高松市中心部にある市立美術館です。特別展・常設展・ワークショップなど多様な催しを開催しており、来館前に公式イベント情報を確認できます。",
    "source": "https://www.city.takamatsu.kagawa.jp/museum/takamatsu/"
  },
  {
    "name": "サンポートホール高松",
    "spot_id": "sunport_hall_takamatsu",
    "lat": 34.352483,
    "lng": 134.04719,
    "category": "文化・芸術施設",
    "prefecture": "香川県",
    "municipality": "高松市",
    "official_url": "https://www.sunport-hall.jp/",
    "description": "高松シンボルタワー内にある文化芸術拠点。1,500名収容の大ホールのほか、2つの小ホールや会議室を備え、コンサートや国際会議など多様なイベントが開催されます。",
    "source": "https://www.sunport-hall.jp/about/"
  },
  {
    "name": "あなぶきアリーナ香川",
    "spot_id": "anabuki_arena_kagawa",
    "lat": 34.35418,
    "lng": 134.04675,
    "category": "アリーナ",
    "prefecture": "香川県",
    "municipality": "高松市",
    "official_url": "https://kagawa-arena.com/",
    "description": "高松市サンポートにある多目的アリーナで、スポーツやコンサートなど幅広いイベントが開催されます。",
    "source": "https://kagawa-arena.com/"
  },
  {
    "name": "香川県県民ホール レグザムホール",
    "spot_id": "rexam_hall",
    "lat": 34.350481,
    "lng": 134.053155,
    "category": "ホール・劇場",
    "prefecture": "香川県",
    "municipality": "高松市",
    "official_url": "https://kenminhall.com/",
    "description": "香川県高松市にある県立の大規模多目的ホールです。大ホール、小ホール、多目的大会議室などを備え、コンサートや演劇、式典など幅広く利用されています。",
    "source": "https://p-kanagawa.jp/about/"
  },
  {
    "name": "観音寺市民会館 ハイスタッフホール",
    "spot_id": "highstaff_hall",
    "lat": 34.126559,
    "lng": 133.653486,
    "category": "ホール・劇場",
    "prefecture": "香川県",
    "municipality": "観音寺市",
    "official_url": "https://www.kanon-kaikan.jp/",
    "description": "香川県観音寺市にある西讃地区最大規模の公共ホールです。約1,200席の大ホールを備え、コンサート・舞台公演・式典など多目的なイベントが開催されています。",
    "source": "https://www.kanon-kaikan.jp/"
  },
  {
    "name": "丸亀市綾歌総合文化会館アイレックス",
    "spot_id": "marugame_ilex",
    "lat": 34.23124,
    "lng": 133.87895,
    "category": "ホール・劇場",
    "prefecture": "香川県",
    "municipality": "丸亀市",
    "official_url": "https://www.marugame-ilex.org/",
    "description": "丸亀市にある綾歌総合文化会館で、大ホール・小ホールなどを備えた文化拠点です。コンサートや公演、地域イベントが開催されています。",
    "source": "https://www.marugame-ilex.org/"
  },
  {
    "name": "愛媛県美術館",
    "spot_id": "ehime_prefectural_museum_of_art",
    "lat": 33.84053,
    "lng": 132.76219,
    "category": "美術館",
    "prefecture": "愛媛県",
    "municipality": "松山市",
    "official_url": "https://www.ehime-art.jp/",
    "description": "松山城を望む城山公園内に位置する美術館です。「みる・つくる・まなぶ」の3本柱を掲げ、コレクション展示や多彩な企画展を開催しています。",
    "source": "https://www.ehime-art.jp/guide/"
  },
  {
    "name": "愛媛県県民文化会館",
    "spot_id": "kenbun",
    "lat": 33.84848,
    "lng": 132.77981,
    "category": "文化施設",
    "prefecture": "愛媛県",
    "municipality": "松山市",
    "official_url": "https://www.kenbun.jp/",
    "description": "四国最大級の規模を誇る多目的ホールです。3,000人収容可能なメインホールのほか、サブホール、国際会議場などを備え、コンサートや学会、展示会など幅広いイベントに利用されています。",
    "source": "https://www.kenbun.jp/event/"
  },
  {
    "name": "アイテムえひめ（愛媛国際貿易センター）",
    "spot_id": "itemehime",
    "lat": 33.85009,
    "lng": 132.71497,
    "category": "展示・見本市会場",
    "prefecture": "愛媛県",
    "municipality": "松山市",
    "official_url": "https://itemehime.com/",
    "description": "愛媛県松山市にある四国最大級の展示・見本市施設です。広大な大展示場やFAZプラザ、会議室を備え、大規模な展示会や物産展、即売会、コンサートなど多目的なイベントに対応しています。",
    "source": "https://itemehime.com/event"
  },
  {
    "name": "愛媛県武道館",
    "spot_id": "ehime-budoukan",
    "lat": 33.81084,
    "lng": 132.74547,
    "category": "武道館",
    "prefecture": "愛媛県",
    "municipality": "松山市",
    "official_url": "https://ehime-spa.jp/budoukan/",
    "description": "松山市の松山総合公園（市坪）内にある日本最大級の武道館。武道だけでなくコンサートや式典など多目的に利用されます。",
    "source": "https://ehime-spa.jp/budoukan/martial-event/"
  },
  {
    "name": "あかがねミュージアム",
    "spot_id": "akagane-museum",
    "lat": 33.94937,
    "lng": 133.29513,
    "category": "美術館・文化施設",
    "prefecture": "愛媛県",
    "municipality": "新居浜市",
    "official_url": "https://akaganemuseum.jp/",
    "description": "愛媛県新居浜市の総合文化施設。新居浜市美術館、多目的ホール、銅（あかがね）をテーマにした展示など、アートと地域文化が融合した拠点です。",
    "source": "https://akaganemuseum.jp/about/"
  },
  {
    "name": "アスティとくしま",
    "spot_id": "asty-tokushima",
    "lat": 34.05324,
    "lng": 134.56369,
    "category": "イベントホール",
    "prefecture": "徳島県",
    "municipality": "徳島市",
    "official_url": "https://www.asty-tokushima.jp/",
    "description": "徳島県立産業観光交流センター（アスティとくしま）は、最大5,000人収容の多目的ホールや会議室を備えた四国最大級のコンベンション施設です。コンサートや展示会、国際会議など幅広く利用されています。",
    "source": "https://www.asty-tokushima.jp/about/"
  },
  {
  "name": "あすたむらんど徳島",
  "spot_id": "asutamuland",
  "lat": 34.15047,
  "lng": 134.442906,
  "category": "科学館・公園",
  "prefecture": "徳島県",
  "municipality": "板野郡板野町",
  "official_url": "https://asutamuland.jp/",
  "description": "「科学・人間・自然」をテーマにした大型児童公園です。世界最大級のプラネタリウムや子ども科学館、木のおもちゃ美術館などを備え、遊びながら学べる体験型施設が充実しています。",
  "source": "https://asutamuland.jp/event/"
},
  {
  "name": "徳島駅クレメントプラザ",
  "spot_id": "clementplaza",
  "lat": 34.07445,
  "lng": 134.55119,
  "category": "ショッピングモール",
  "prefecture": "徳島県",
  "municipality": "徳島市",
  "official_url": "https://clementplaza.com/",
  "description": "JR徳島駅に直結した駅ビル型の商業施設です。徳島のお土産が揃うフロアや飲食街「徳島駅バル」、ファッション、雑貨などのショップが充実しており、観光客から地元住民まで幅広く利用されています。",
  "source": "https://clementplaza.com/event/"
  },
  {
    "name": "あわぎんホール",
    "spot_id": "awagin-hall",
    "lat": 34.07504,
    "lng": 134.54626,
    "category": "文化ホール",
    "prefecture": "徳島県",
    "municipality": "徳島市",
    "official_url": "https://kyoubun.or.jp/",
    "description": "徳島市藍場町にある県立の文化施設です。大ホール、小ホール、会議室、展示スペースなどを備え、コンサート、演劇、講演会、地域イベントなど多目的に利用されています。",
    "source": "https://kyoubun.or.jp/moyoshi/1.html"
  },
  {
  "name": "藍住町総合文化ホール",
  "spot_id": "aizumi_bunka",
  "lat": 34.116631,
  "lng": 134.508552,
  "category": "文化施設",
  "prefecture": "徳島県",
  "municipality": "板野郡藍住町",
  "official_url": "https://www.town.aizumi.lg.jp/bunka-h/",
  "description": "2019年に開館した多目的ホールです。優れた音響性能を誇る大ホール（604席）を備え、コンサート、演劇、講演会など、地域の芸術文化の拠点として幅広く活用されています。",
  "source": "https://www.town.aizumi.lg.jp/bunka-h/event_list/"
},
  {
    "name": "高知県立県民文化ホール",
    "spot_id": "kochi-skbh",
    "lat": 33.55676,
    "lng": 133.533141,
    "category": "文化ホール",
    "prefecture": "高知県",
    "municipality": "高知市",
    "official_url": "https://www.kkb-hall.jp/",
    "description": "高知市本町にある多目的文化施設です。1,507席のオレンジホールと500席のグリーンホールを備え、コンサートや演劇、式典など幅広く利用されています。",
    "source": "https://www.kkb-hall.jp/event/event-pickup.html?view=autonomy"
  },
  {
    "name": "高知県立県民体育館",
    "spot_id": "kochi-sporthall",
    "lat": 33.54951,
    "lng": 133.54728,
    "category": "体育館",
    "prefecture": "高知県",
    "municipality": "高知市",
    "official_url": "https://www.kochi-kenmin.org/",
    "description": "高知市本町に位置する県立の総合体育施設です。メインアリーナ、サブアリーナ、武道場、トレーニング室などを備え、バスケットボールやバレーボール、各種大会、イベントなど幅広い用途で利用されています。",
    "source": "https://docs.google.com/spreadsheets/d/1F0iBntJPjSgT_QmOZ7n0ZNXUZ2mvU-J9Jrsy72p843w/pub?gid=1515611641&single=true&output=csv"
  },
  {
    "name": "高知市文化プラザかるぽーと",
    "spot_id": "kochi-culport",
    "lat": 33.55839,
    "lng": 133.54733,
    "category": "文化ホール",
    "prefecture": "高知県",
    "municipality": "高知市",
    "official_url": "https://www.bunkaplaza.or.jp/",
    "description": "高知市九反田にある複合文化施設です。1,085席の大ホールをはじめ、ギャラリー、スタジオ、図書館など多彩な機能を備え、コンサートや展示会、市民活動の拠点として幅広く利用されています。",
    "source": "https://www.bunkaplaza.or.jp/event/"
  },
  {
    "name": "須崎市立市民文化会館",
    "spot_id": "susaki-bunka",
    "lat": 33.39005,
    "lng": 133.2934,
    "category": "文化ホール",
    "prefecture": "高知県",
    "municipality": "須崎市",
    "official_url": "https://www.susakibunka.com/",
    "description": "須崎市桐間南にある市民文化施設です。大ホールを中心に、講演会、コンサート、地域イベントなど幅広い用途で利用され、市民の文化活動の拠点となっています。",
    "source": "https://www.susakibunka.com/event"
  },
  {
    "name": "高知ぢばさんセンター",
    "spot_id": "kochi-dibasan",
    "lat": 33.57283,
    "lng": 133.57739,
    "category": "展示場",
    "prefecture": "高知県",
    "municipality": "高知市",
    "official_url": "https://diba3.com/",
    "description": "高知市布師田にある産業振興・交流拠点施設です。大規模展示場、会議室、イベントスペースを備え、産業展、物産展、商談会、地域イベントなど多目的に利用されています。",
    "source": "https://diba3.com/event/"
  }
]
