[
  {
    "name": "丸亀市猪熊弦一郎現代美術館",
    "spot_id": "mimoca",
    "lat": 34.2912146,
    "lng": 133.7921947,
    "category": "美術館",
    "prefecture": "香川県",
    "municipality": "丸亀市",
    "official_url": "https://www.mimoca.jp/",
    "description": "丸亀市にある現代美術館です。展示や関連イベントが開催されるため、来館前に公式情報の確認がおすすめです。",
    "source": "https://www.kagawa-arts.or.jp/facility/"
  },
  {
    "name": "香川県立ミュージアム",
    "spot_id": "kagawa_pref_museum",
    "lat": 34.3494936,
    "lng": 134.0531364,
    "category": "博物館",
    "prefecture": "香川県",
    "municipality": "高松市",
    "official_url": "https://www.pref.kagawa.lg.jp/kmuseum/kmuseum/index.html",
    "description": "香川県立の博物館です。展覧会や関連イベントの情報は公式サイトで案内されています。",
    "source": "https://www.kagawa-arts.or.jp/facility/"
  },
  {
    "name": "サンポートホール高松",
    "spot_id": "sunport_hall_takamatsu",
    "lat": 34.352483,
    "lng": 134.04719,
    "category": "文化・芸術施設",
    "prefecture": "香川県",
    "municipality": "高松市",
    "official_url": "https://www.sunport-hall.jp/",
    "description": "高松シンボルタワー内にある文化芸術拠点。1,500名収容の大ホールのほか、2つの小ホールや会議室を備え、コンサートや国際会議など多様なイベントが開催されます。",
    "source": "https://www.sunport-hall.jp/about/"
  },
  {
    "name": "あなぶきアリーナ香川",
    "spot_id": "anabuki_arena_kagawa",
    "lat": 34.35418,
    "lng": 134.04675,
    "category": "アリーナ",
    "prefecture": "香川県",
    "municipality": "高松市",
    "official_url": "https://kagawa-arena.com/",
    "description": "高松市サンポートにある多目的アリーナで、スポーツやコンサートなど幅広いイベントが開催されます。",
    "source": "https://kagawa-arena.com/"
  },
  {
    "name": "香川県県民ホール レグザムホール",
    "spot_id": "rexam_hall",
    "lat": 34.350481,
    "lng": 134.053155,
    "category": "ホール・劇場",
    "prefecture": "香川県",
    "municipality": "高松市",
    "official_url": "https://kenminhall.com/",
    "description": "香川県高松市にある県立の大規模多目的ホールです。大ホール、小ホール、多目的大会議室などを備え、コンサートや演劇、式典など幅広く利用されています。",
    "source": "https://p-kanagawa.jp/about/"
  },
  {
    "name": "観音寺市民会館 ハイスタッフホール",
    "spot_id": "highstaff_hall",
    "lat": 34.126559,
    "lng": 133.653486,
    "category": "ホール・劇場",
    "prefecture": "香川県",
    "municipality": "観音寺市",
    "official_url": "https://www.kanon-kaikan.jp/",
    "description": "香川県観音寺市にある西讃地区で最大規模の1200人収容のホール、",
    "source": "https://www.kanon-kaikan.jp/"
  },
  {
    "name": "丸亀市綾歌総合文化会館アイレックス",
    "spot_id": "marugame_ilex",
    "lat": 34.23124,
    "lng": 133.87895,
    "category": "ホール・劇場",
    "prefecture": "香川県",
    "municipality": "丸亀市",
    "official_url": "https://www.marugame-ilex.org/",
    "description": "丸亀市にある綾歌総合文化会館で、大ホール・小ホールなどを備えた文化拠点です。コンサートや公演、地域イベントが開催されています。",
    "source": "https://www.marugame-ilex.org/"
  },
  {
  "name": "愛媛県美術館",
  "spot_id": "ehime_prefectural_museum_of_art",
  "lat": 33.84053,
  "lng": 132.76219,
  "category": "美術館",
  "prefecture": "愛媛県",
  "municipality": "松山市",
  "official_url": "https://www.ehime-art.jp/",
  "description": "松山城を望む城山公園内に位置する美術館です。「みる・つくる・まなぶ」の3本柱を掲げ、コレクション展示や多彩な企画展を開催しています。",
  "source": "https://www.ehime-art.jp/guide/"
  },
  {
  "name": "愛媛県県民文化会館",
  "spot_id": "kenbun",
  "lat": 33.84848,
  "lng": 132.77981,
  "category": "文化施設",
  "prefecture": "愛媛県",
  "municipality": "松山市",
  "official_url": "https://www.kenbun.jp/",
  "description": "四国最大級の規模を誇る多目的ホールです。3,000人収容可能なメインホールのほか、サブホール、国際会議場などを備え、コンサートや学会、展示会など幅広いイベントに利用されています。",
  "source": "https://www.kenbun.jp/event/"
},
  {
  "name": "アイテムえひめ（愛媛国際貿易センター）",
  "spot_id": "itemehime",
  "lat": 33.85009,
  "lng": 132.71497,
  "category": "展示・見本市会場",
  "prefecture": "愛媛県",
  "municipality": "松山市",
  "official_url": "https://itemehime.com/",
  "description": "愛媛県松山市にある四国最大級の展示・見本市施設です。広大な大展示場やFAZプラザ、会議室を備え、大規模な展示会や物産展、即売会、コンサートなど多目的なイベントに対応しています。",
  "source": "https://itemehime.com/event"
}
]
