[
  {
    "name": "丸亀市猪熊弦一郎現代美術館",
    "spot_id": "mimoca",
    "lat": 34.2912146,
    "lng": 133.7921947,
    "category": "美術館",
    "prefecture": "香川県",
    "municipality": "丸亀市",
    "official_url": "https://www.mimoca.jp/",
    "description": "丸亀市にある現代美術館です。展示や関連イベントが開催されるため、来館前に公式情報の確認がおすすめです。",
    "source": "https://www.kagawa-arts.or.jp/facility/"
  },
  {
    "name": "香川県立ミュージアム",
    "spot_id": "kagawa_pref_museum",
    "lat": 34.3494936,
    "lng": 134.0531364,
    "category": "博物館",
    "prefecture": "香川県",
    "municipality": "高松市",
    "official_url": "https://www.pref.kagawa.lg.jp/kmuseum/kmuseum/index.html",
    "description": "香川県立の博物館です。展覧会や関連イベントの情報は公式サイトで案内されています。",
    "source": "https://www.kagawa-arts.or.jp/facility/"
  },
  {
    "name": "サンポートホール高松",
    "spot_id": "sunport_hall_takamatsu",
    "lat": 34.352483,
    "lng": 134.04719,
    "category": "文化・芸術施設",
    "prefecture": "香川県",
    "municipality": "高松市",
    "official_url": "https://www.sunport-hall.jp/",
    "description": "高松シンボルタワー内にある文化芸術拠点。1,500名収容の大ホールのほか、2つの小ホールや会議室を備え、コンサートや国際会議など多様なイベントが開催されます。",
    "source": "https://www.sunport-hall.jp/about/"
  },
  {
    "name": "あなぶきアリーナ香川",
    "spot_id": "anabuki_arena_kagawa",
    "lat": 34.35293,
    "lng": 134.04776,
    "category": "アリーナ",
    "prefecture": "香川県",
    "municipality": "高松市",
    "official_url": "https://kagawa-arena.com/",
    "description": "高松市サンポートにある多目的アリーナで、スポーツやコンサートなど幅広いイベントが開催されます。",
    "source": "https://kagawa-arena.com/"
  },
  {
    "name": "香川県県民ホール レグザムホール",
    "spot_id": "rexam_hall",
    "lat": 34.350481,
    "lng": 134.053155,
    "category": "ホール・劇場",
    "prefecture": "香川県",
    "municipality": "高松市",
    "official_url": "https://kenminhall.com/",
    "description": "香川県高松市にある県立の大規模多目的ホールです。大ホール、小ホール、多目的大会議室などを備え、コンサートや演劇、式典など幅広く利用されています。",
    "source": "https://p-kanagawa.jp/about/"
  },
  {
    "name": "観音寺市民会館 ハイスタッフホール",
    "spot_id": "highstaff_hall",
    "lat": 34.126559,
    "lng": 133.653486,
    "category": "ホール・劇場",
    "prefecture": "香川県",
    "municipality": "観音寺市",
    "official_url": "https://www.kanon-kaikan.jp/",
    "description": "香川県観音寺市にある西讃地区で最大規模の1200人収容のホール、ハイスタッフホール（観音寺市民会館）",
    "source": "https://www.kanon-kaikan.jp/"
  }
]
